[
  {
    "id": "st_ydf4cm",
    "name": "Benidorm",
    "address": "C/ Berlín 2 Edificio Coblanca 5",
    "city": "Benidorm",
    "country": "ES",
    "email": "car.rental@juno.dev",
    "lat": 38.53487,
    "lon": -0.10683,
    "phoneNumber": "+34(272)941 913",
    "postalCode": "03503",
    "province": "Alicante",
    "reviewsCount": 527,
    "reviewsRating": 4.5
  },
  {
    "id": "st_wiuuy6",
    "name": "Alicante - Airport",
    "address": "Alicante airport",
    "city": "El Altet",
    "country": "ES",
    "email": "car_rental@sky.biz",
    "iata": "ALC",
    "lat": 38.28792,
    "lon": -0.55231,
    "phoneNumber": "+34(662)155 144",
    "postalCode": "03195",
    "province": "Alicante",
    "reviewsCount": 2831,
    "reviewsRating": 4
  },
  {
    "id": "st_eu6yob",
    "name": "Valencia - Airport",
    "address": "Avinguda d'els Arcs",
    "city": "Manises",
    "country": "ES",
    "email": "carrental@zonnet.name",
    "iata": "VLC",
    "lat": 39.4847938,
    "lon": -0.4640338,
    "phoneNumber": "+34(386)784 368",
    "postalCode": "46940",
    "province": "Valencia",
    "reviewsCount": 2759,
    "reviewsRating": 4.4
  },
  {
    "id": "st_zt3ivv",
    "name": "Torrevieja",
    "address": "Av de las Cortes Valencianas 6",
    "city": "Torrevieja",
    "country": "ES",
    "email": "car+rental350@sky.net",
    "lat": 37.98548,
    "lon": -0.67851,
    "phoneNumber": "+34(654)006 394",
    "postalCode": "03183",
    "province": "Alicante",
    "reviewsCount": 540,
    "reviewsRating": 4.5
  },
  {
    "id": "st_lt1jo6",
    "name": "Valencia Estación de tren Joaquín Sorolla",
    "address": "Carrer de Sant Vicent Màrtir, 190",
    "city": "Valencia",
    "country": "ES",
    "email": "car-rental@sky.name",
    "lat": 39.459377,
    "lon": -0.383302,
    "phoneNumber": "+34(666)628 450",
    "postalCode": "46007",
    "province": "Valencia",
    "reviewsCount": 883,
    "reviewsRating": 4.5
  },
  {
    "id": "st_xr7001",
    "name": "Mallorca - Palma - Airport",
    "address": "Camino Son Fangos, 147",
    "city": "Can Pastilla",
    "country": "ES",
    "email": "car+rental@zonnet.info",
    "iata": "PMI",
    "lat": 39.53595,
    "lon": 2.73379,
    "phoneNumber": "+34(327)633 132",
    "postalCode": "07199",
    "province": "Baleares",
    "reviewsCount": 8662,
    "reviewsRating": 4.1
  },
  {
    "id": "st_gnxssj",
    "name": "Ibiza - Airport",
    "address": "Ctra. Ibiza-Aeropuerto KM 6 Número 24",
    "city": "Sant Jordi des Salines",
    "country": "ES",
    "email": "car+rental698@club-internet.info",
    "iata": "IBZ",
    "lat": 38.88242,
    "lon": 1.37769,
    "phoneNumber": "+34(578)284 393",
    "postalCode": "07817",
    "province": "Baleares",
    "reviewsCount": 2707,
    "reviewsRating": 4
  },
  {
    "id": "st_ci8goa",
    "name": "Alicante - Estación de tren",
    "address": "Avda Salamanca 14",
    "city": "Alicante",
    "country": "ES",
    "email": "car+rental352@aliceadsl.com",
    "lat": 38.34479,
    "lon": -0.49452,
    "phoneNumber": "+34(841)725 855",
    "postalCode": "03005",
    "province": "Alicante",
    "reviewsCount": 694,
    "reviewsRating": 4.7
  },
  {
    "id": "st_argm2o",
    "name": "Sevilla - Airport",
    "address": "Polígono Industrial Los Espartales, 2 Carretera N-339. Vía de servicios Aeropuerto, s/n",
    "city": "La Rinconada",
    "country": "ES",
    "email": "car_rental@sky.io",
    "iata": "SVQ",
    "lat": 37.43049,
    "lon": -5.88037,
    "phoneNumber": "+34(248)073 065",
    "postalCode": "41309",
    "province": "Sevilla",
    "reviewsCount": 1888,
    "reviewsRating": 4.4
  },
  {
    "id": "st_xyv9l5",
    "name": "Sevilla - Santa Justa - Estación de tren",
    "address": "Av. de Kansas City, 32",
    "city": "Sevilla",
    "country": "ES",
    "email": "carrental@earthlink.info",
    "lat": 37.3902478435239,
    "lon": -5.9741710822523375,
    "phoneNumber": "+34(513)471 274",
    "postalCode": "41007",
    "province": "",
    "reviewsCount": 1321,
    "reviewsRating": 4.5
  },
  {
    "id": "st_t3uymv",
    "name": "Málaga - Airport",
    "address": "C/ de Pascal, 42 Pol. Ind. Villa Rosa",
    "city": "Málaga",
    "country": "ES",
    "email": "car+rental450@t-online.io",
    "iata": "AGP",
    "lat": 36.67597,
    "lon": -4.48482,
    "phoneNumber": "+34(301)282 154",
    "postalCode": "29004",
    "province": "Málaga",
    "reviewsCount": 4844,
    "reviewsRating": 4.2
  },
  {
    "id": "st_pwt0fd",
    "name": "Malaga - María Zambrano - Estación de tren",
    "address": "Calle Mendivil 10, Local 1",
    "city": "Málaga",
    "country": "ES",
    "email": "car-rental562@telenet.net",
    "lat": 36.71307,
    "lon": -4.43263,
    "phoneNumber": "+34(645)442 828",
    "postalCode": "29002",
    "province": "Málaga",
    "reviewsCount": 846,
    "reviewsRating": 4.4
  },
  {
    "id": "st_vleibj",
    "name": "Murcia - Airport",
    "address": "Poligono 161, Parcela 73, RM-17 Lo Jurado",
    "city": "Corvera",
    "country": "ES",
    "email": "car.rental809@telenet.info",
    "iata": "RMU",
    "lat": 37.826389,
    "lon": -1.10888,
    "phoneNumber": "+34(744)858 339",
    "postalCode": "30156",
    "province": "Murcia",
    "reviewsCount": 1203,
    "reviewsRating": 4.5
  },
  {
    "id": "st_xfc8fe",
    "name": "Zaragoza - Estación de tren Delicias",
    "address": "C. de Miquel Roca i Junyent, 7 (planta baja / ground floor - estación de autobuses - junto a dársena 8 /in front of parking bay number 8)",
    "city": "Zaragoza",
    "country": "ES",
    "email": "car_rental@me.io",
    "lat": 41.65955819562677,
    "lon": -0.9111217296816104,
    "phoneNumber": "+34(411)623 933",
    "postalCode": "50011",
    "province": "Zaragoza",
    "reviewsCount": 184,
    "reviewsRating": 5
  },
  {
    "id": "st_iobr1q",
    "name": "Madrid - Airport",
    "address": "Calle Trespaderne 17",
    "city": "Madrid",
    "country": "ES",
    "email": "car+rental28@rocketmail.info",
    "iata": "MAD",
    "lat": 40.453322,
    "lon": -3.581759,
    "phoneNumber": "+34(738)871 522",
    "postalCode": "28042",
    "province": "Madrid",
    "reviewsCount": 2802,
    "reviewsRating": 4
  },
  {
    "id": "st_o1pr2r",
    "name": "Madrid - Atocha",
    "address": "Avda. Ciudad de Barcelona 5",
    "city": "Madrid",
    "country": "ES",
    "email": "car-rental@telenet.com",
    "lat": 40.405095,
    "lon": -3.682759,
    "phoneNumber": "+34(743)346 935",
    "postalCode": "28007",
    "province": "Madrid",
    "reviewsCount": 1178,
    "reviewsRating": 4.3
  },
  {
    "id": "st_snaixd",
    "name": "Madrid - Chamartín",
    "address": "Calle de la Hiedra 26, Planta -1 Parking EMT Nuestra Señora del Recuerdo",
    "city": "Madrid",
    "country": "ES",
    "email": "car.rental@web.com",
    "lat": 40.47235,
    "lon": -3.67903,
    "phoneNumber": "+34(588)314 756",
    "postalCode": "28036",
    "province": "Madrid",
    "reviewsCount": 513,
    "reviewsRating": 4.4
  },
  {
    "id": "st_w57yio",
    "name": "Madrid Castellana",
    "address": "Paseo de la Castellana, 33 Edificio Mutua Madrileña",
    "city": "Madrid",
    "country": "ES",
    "email": "car-rental@alice.name",
    "lat": 40.43291,
    "lon": -3.68976,
    "phoneNumber": "+34(316)265 479",
    "postalCode": "28046",
    "province": "Madrid",
    "reviewsCount": 0,
    "reviewsRating": 0
  },
  {
    "id": "st_tlq32a",
    "name": "Madrid Leganés",
    "address": "Av. Carlos Sainz, 7",
    "city": "Leganés",
    "country": "ES",
    "email": "carrental895@web.com",
    "lat": 40.318789,
    "lon": -3.762,
    "phoneNumber": "+34(125)926 887",
    "postalCode": "28914",
    "province": "Madrid",
    "reviewsCount": 595,
    "reviewsRating": 4.4
  },
  {
    "id": "st_zzasjd",
    "name": "Madrid - Majadahonda",
    "address": "CC Equinoccio Park Calle Fresa 2 Local L1-15D",
    "city": "Majadahonda",
    "country": "ES",
    "email": "car.rental@sbcglobal.io",
    "lat": 40.45459,
    "lon": -3.87525,
    "phoneNumber": "+34(355)827 548",
    "postalCode": "28222",
    "province": "Madrid",
    "reviewsCount": 324,
    "reviewsRating": 4.7
  },
  {
    "id": "st_awxt8m",
    "name": "Madrid - Alcobendas",
    "address": "Avda Valdelaparra, 39 Nave F",
    "city": "Alcobendas",
    "country": "ES",
    "email": "car_rental518@aim.net",
    "lat": 40.5396,
    "lon": -3.65041,
    "phoneNumber": "+34(341)215 972",
    "postalCode": "28108",
    "province": "Madrid",
    "reviewsCount": 315,
    "reviewsRating": 4.7
  },
  {
    "id": "st_uns90o",
    "name": "Madrid - Alcalá de Henares",
    "address": "Calle Varsovia, 2",
    "city": "Alcalá de Henares",
    "country": "ES",
    "email": "carrental@freenet.com",
    "lat": 40.497543,
    "lon": -3.341214,
    "phoneNumber": "+34(722)483 057",
    "postalCode": "28805",
    "province": "Madrid",
    "reviewsCount": 196,
    "reviewsRating": 4.3
  },
  {
    "id": "st_lokuxs",
    "name": "Madrid - Collado Villalba",
    "address": "Polígono P-29, Calle Buril 2-Bajo",
    "city": "Collado Villalba",
    "country": "ES",
    "email": "car_rental@virgilio.net",
    "lat": 40.625756,
    "lon": -4.022884,
    "phoneNumber": "+34(082)327 715",
    "postalCode": "28400",
    "province": "Madrid",
    "reviewsCount": 80,
    "reviewsRating": 5
  },
  {
    "id": "st_x3rk45",
    "name": "Madrid - Plaza de España",
    "address": "Parking EMT, Plaza de España S/N,  planta -1",
    "city": "Madrid",
    "country": "ES",
    "email": "carrental909@comcast.io",
    "lat": 40.423516,
    "lon": -3.711859,
    "phoneNumber": "+34(361)521 766",
    "postalCode": "28008",
    "province": "Madrid",
    "reviewsCount": 12,
    "reviewsRating": 4
  },
  {
    "id": "st_bqq4sz",
    "name": "Madrid - Recoletos",
    "address": "Paseo de Recoletos, 4. Parking EMT",
    "city": "Madrid",
    "country": "ES",
    "email": "car+rental529@charter.io",
    "lat": 40.42066,
    "lon": -3.69198,
    "phoneNumber": "+34(286)457 791",
    "postalCode": "28001",
    "province": "Madrid",
    "reviewsCount": 7,
    "reviewsRating": 4
  },
  {
    "id": "st_s1ceiy",
    "name": "MutuaCity - Torre de Cristal",
    "address": "Paseo de la Castellana 259C",
    "city": "Madrid",
    "country": "ES",
    "email": "car+rental@juno.org",
    "lat": 40.47829,
    "lon": -3.68752,
    "phoneNumber": "+34(446)329 745",
    "postalCode": "28046",
    "province": "Madrid",
    "reviewsCount": 0,
    "reviewsRating": 0
  },
  {
    "id": "st_mr6n1d",
    "name": "MutuaCity - Avenida de Europa 22",
    "address": "Avenida de Europa 22",
    "city": "Alcobendas",
    "country": "ES",
    "email": "car.rental512@verizon.io",
    "lat": 40.514563,
    "lon": -3.658438,
    "phoneNumber": "+34(347)913 447",
    "postalCode": "28108",
    "province": "Madrid",
    "reviewsCount": 0,
    "reviewsRating": 0
  },
  {
    "id": "st_nyd0qw",
    "name": "MutuaCity - Castellana 31",
    "address": "P.º de la Castellana, 31,",
    "city": "Madrid",
    "country": "ES",
    "email": "car_rental@bol.io",
    "lat": 40.431688,
    "lon": -3.690563,
    "phoneNumber": "+34(935)745 818",
    "postalCode": "28046",
    "province": "Madrid",
    "reviewsCount": 0,
    "reviewsRating": 0
  },
  {
    "id": "st_lz66rk",
    "name": "MutuaCity - Alfredo Mahou",
    "address": "Plaza de Manuel Gómez-Moreno, 2,",
    "city": "Madrid",
    "country": "ES",
    "email": "carrental@charter.dev",
    "lat": 40.4485212,
    "lon": -3.6954274,
    "phoneNumber": "+34(313)870 974",
    "postalCode": "28020",
    "province": "Madrid",
    "reviewsCount": 0,
    "reviewsRating": 0
  },
  {
    "id": "st_lj8nfa",
    "name": "Bilbao - Airport",
    "address": "Poligono Ugaldeguren III, parcela nº 24, nave Bajo 1,",
    "city": "Bilbao",
    "country": "ES",
    "email": "carrental426@rambler.biz",
    "iata": "BIO",
    "lat": 43.286,
    "lon": -2.874694,
    "phoneNumber": "+34(272)962 139",
    "postalCode": "48170",
    "province": "Vizcaya",
    "reviewsCount": 759,
    "reviewsRating": 4.9
  },
  {
    "id": "st_ok87m8",
    "name": "Bilbao - Estación Abando Indalecio Prieto",
    "address": "Calle Buenos Aires, 5",
    "city": "Bilbao",
    "country": "ES",
    "email": "carrental615@chello.info",
    "lat": 43.262238,
    "lon": -2.925367,
    "phoneNumber": "+34(770)222 227",
    "postalCode": "48001",
    "province": "Vizcaya",
    "reviewsCount": 110,
    "reviewsRating": 4.7
  },
  {
    "id": "st_z07gbb",
    "name": "Santiago de Compostela - Airport",
    "address": "C/Noval 19 (N-634) Lavacolla",
    "city": "Santiago de Compostela",
    "country": "ES",
    "email": "car-rental170@telenet.net",
    "iata": "SCQ",
    "lat": 42.900447,
    "lon": -8.435888,
    "phoneNumber": "+34(193)628 353",
    "postalCode": "15820",
    "province": "A Coruña",
    "reviewsCount": 1315,
    "reviewsRating": 5
  },
  {
    "id": "st_q9nsn5",
    "name": "Santiago de Compostela - Estación tren",
    "address": "Rúa do Horreo,160 – bajo,",
    "city": "Santiago de Compostela",
    "country": "ES",
    "email": "carrental@tin.net",
    "lat": 42.870634,
    "lon": -8.54638,
    "phoneNumber": "+34(726)777 444",
    "postalCode": "15701",
    "province": "A Coruña",
    "reviewsCount": 184,
    "reviewsRating": 4.8
  },
  {
    "id": "st_qs6wci",
    "name": "Barcelona - Airport",
    "address": "C/ Alta Ribagorça, 30-34 Poligono Mas Blau II",
    "city": "El Prat de Llobregat",
    "country": "ES",
    "email": "car-rental@web.org",
    "iata": "BCN",
    "lat": 41.31026,
    "lon": 2.07365,
    "phoneNumber": "+34(538)387 437",
    "postalCode": "08820",
    "province": "Barcelona",
    "reviewsCount": 4270,
    "reviewsRating": 4
  },
  {
    "id": "st_yllrhw",
    "name": "Barcelona Sants",
    "address": "C/ Viriat 43,",
    "city": "Barcelona",
    "country": "ES",
    "email": "car_rental651@googlemail.io",
    "lat": 41.380505,
    "lon": 2.140873,
    "phoneNumber": "+34(422)724 251",
    "postalCode": "08014",
    "province": "España",
    "reviewsCount": 1537,
    "reviewsRating": 4
  },
  {
    "id": "st_ae0glj",
    "name": "Barcelona, Avenida Diagonal - Plaza Glòries",
    "address": "C/ del Perú, 22,",
    "city": "Barcelona",
    "country": "ES",
    "email": "car_rental@hotmail.biz",
    "lat": 41.405711642873186,
    "lon": 2.192741686828311,
    "phoneNumber": "+34(991)580 753",
    "postalCode": "08018",
    "province": "",
    "reviewsCount": 2,
    "reviewsRating": 5
  },
  {
    "id": "st_iswyjr",
    "name": "Lisboa - Airport",
    "address": "R. João Cunha Serra, lote Q, 5, 1800-003",
    "city": "Freguesia Santa Maria dos Olivais",
    "country": "PT",
    "email": "car-rental677@rediffmail.net",
    "iata": "LIS",
    "lat": 38.78382,
    "lon": -9.12438,
    "phoneNumber": "+351 28 532 0786",
    "postalCode": "2718",
    "province": "Lisboa",
    "reviewsCount": 4923,
    "reviewsRating": 4
  },
  {
    "id": "st_yn5mkw",
    "name": "Faro - Airport",
    "address": "R. Francisco Assis 4A,",
    "city": "Faro",
    "country": "PT",
    "email": "car_rental556@wanadoo.net",
    "iata": "FAO",
    "lat": 37.037312,
    "lon": -7.959797,
    "phoneNumber": "+351 60 683 1305",
    "postalCode": "8005-549",
    "province": "",
    "reviewsCount": 2680,
    "reviewsRating": 4
  },
  {
    "id": "st_svn3yv",
    "name": "Oporto - Airport",
    "address": "Rua de Joaquim Alves de Sousa Moreira, 148",
    "city": "MAIA",
    "country": "PT",
    "email": "car.rental307@verizon.name",
    "lat": 41.23388,
    "lon": -8.665,
    "phoneNumber": "+351 61 140 5521",
    "postalCode": "4470-573",
    "reviewsCount": 2945,
    "reviewsRating": 4
  },
  {
    "id": "st_aa20lt",
    "name": "Airport Madeira - Funchal",
    "address": "Estrada Padre Alfredo Vieira Freitas no 26",
    "city": "Gaula",
    "country": "PT",
    "email": "car.rental@yahoo.dev",
    "iata": "FNC",
    "lat": 32.70389,
    "lon": -16.7767,
    "phoneNumber": "+351 01 455 6346",
    "postalCode": "9100-079",
    "province": "Santa Cruz, Madeira",
    "reviewsCount": 2015,
    "reviewsRating": 4
  },
  {
    "id": "st_cdwvhr",
    "name": "Atenas Airport",
    "address": "Leoforos Markopoulou Athens Airport Area",
    "country": "GR",
    "email": "car_rental@sympatico.dev",
    "iata": "ATH",
    "lat": 37.89526,
    "lon": 23.91298,
    "phoneNumber": "+30(271)747 4679",
    "postalCode": "19003",
    "province": "Markopoulou",
    "reviewsCount": 2796,
    "reviewsRating": 4
  },
  {
    "id": "st_eewkkh",
    "name": "Tesalónica Airport",
    "address": "14th km Thessaloniki to Peraia",
    "city": "Thermi",
    "country": "GR",
    "email": "car-rental934@me.name",
    "iata": "SKG",
    "lat": 40.52321,
    "lon": 22.9941,
    "phoneNumber": "+30(234)547 7263",
    "postalCode": "57001",
    "province": "Thessaloniki",
    "reviewsCount": 1590,
    "reviewsRating": 4
  },
  {
    "id": "st_rp6krp",
    "name": "Heraclión Airport",
    "address": "Leoforos Ikarou 87N Alikarnasos P.O. Box",
    "city": "Heraklion",
    "country": "GR",
    "email": "car_rental@gmail.info",
    "iata": "HER",
    "lat": 35.33777,
    "lon": 25.16305,
    "phoneNumber": "+30(683)241 1119",
    "postalCode": "71601",
    "province": "Crete",
    "reviewsCount": 1224,
    "reviewsRating": 4
  },
  {
    "id": "st_aivf3l",
    "name": "Chania Airport - Creta",
    "address": "Pazinos Akrotiriou Chania On the main Nat Road Akrotiriou Soudas",
    "city": "Chania",
    "country": "GR",
    "email": "car.rental@arcor.dev",
    "iata": "CHQ",
    "lat": 35.5183,
    "lon": 24.1234,
    "phoneNumber": "+30(046)443 7712",
    "postalCode": "73100",
    "province": "Crete",
    "reviewsCount": 901,
    "reviewsRating": 4
  },
  {
    "id": "st_zqdsgq",
    "name": "Corfu - Airport",
    "address": "EO Kerkiras Achiliou 49",
    "city": "Kerkira",
    "country": "GR",
    "email": "car.rental892@libero.name",
    "iata": "CFU",
    "lat": 39.611611,
    "lon": 19.907306,
    "phoneNumber": "+30(052)737 6926",
    "postalCode": "491 00",
    "province": "Κέρκυρας",
    "reviewsCount": 426,
    "reviewsRating": 4.5
  },
  {
    "id": "st_rgm1b7",
    "name": "Santorini - Airport",
    "address": "Mesaria",
    "country": "GR",
    "email": "carrental747@rambler.io",
    "iata": "JTR",
    "lat": 36.40055,
    "lon": 25.45805,
    "phoneNumber": "+30(385)404 1350",
    "postalCode": "847 00",
    "reviewsCount": 623,
    "reviewsRating": 4
  },
  {
    "id": "st_ff0t3v",
    "name": "Rodas - Airport",
    "address": "Leof. Eleftherias 197",
    "city": "Kremasti",
    "country": "GR",
    "email": "car-rental@aliceadsl.org",
    "iata": "RHO",
    "lat": 36.40916,
    "lon": 28.11277,
    "phoneNumber": "+30(857)217 1611",
    "postalCode": "851 04",
    "province": "Rhodes",
    "reviewsCount": 292,
    "reviewsRating": 5
  },
  {
    "id": "st_gmzou2",
    "name": "Cefalonia Airport",
    "address": "Argostolion",
    "city": "281 00",
    "country": "GR",
    "email": "carrental484@blueyonder.biz",
    "iata": "EFL",
    "lat": 38.119047,
    "lon": 20.507167,
    "phoneNumber": "+30(143)663 8635",
    "postalCode": "",
    "province": "",
    "reviewsCount": 118,
    "reviewsRating": 5
  },
  {
    "id": "st_j9g3gm",
    "name": "Roma - Airport - Fiumicino",
    "address": "Via Portuense 2483",
    "city": "Fiumicino",
    "country": "IT",
    "email": "car_rental418@aol.biz",
    "iata": "FCO",
    "lat": 41.77218,
    "lon": 12.24127,
    "phoneNumber": "+39(077)3882 13 14",
    "postalCode": "00054",
    "province": "Roma",
    "reviewsCount": 2143,
    "reviewsRating": 4.2
  },
  {
    "id": "st_m5in53",
    "name": "Roma - Airport - Ciampino",
    "address": "Parkingo Ciampino Via Luigi Bandini",
    "city": "Ciampino",
    "country": "IT",
    "email": "car_rental@sympatico.net",
    "iata": "CIA",
    "lat": 41.77936,
    "lon": 12.60587,
    "phoneNumber": "+39(07)88 69",
    "postalCode": "00043",
    "province": "Roma",
    "reviewsCount": 825,
    "reviewsRating": 4.2
  },
  {
    "id": "st_kj5kgv",
    "name": "Milán - Airport - Malpensa",
    "address": "Via per Tornavent SP52 5",
    "city": "Vizzola Ticino",
    "country": "IT",
    "email": "car.rental693@alice.com",
    "iata": "MXP",
    "lat": 45.63467,
    "lon": 8.70528,
    "phoneNumber": "+39(02)36 15",
    "postalCode": "21010",
    "province": "Varese",
    "reviewsCount": 2004,
    "reviewsRating": 4
  },
  {
    "id": "st_jf9csg",
    "name": "Bérgamo - Airport",
    "address": "Via Cremasca 96",
    "city": "Azzano San Paolo",
    "country": "IT",
    "email": "carrental312@rediffmail.dev",
    "iata": "BGY",
    "lat": 45.64929,
    "lon": 9.68282,
    "phoneNumber": "+39(086)756 970",
    "postalCode": "24052",
    "province": "Bergamo",
    "reviewsCount": 2023,
    "reviewsRating": 4.2
  },
  {
    "id": "st_myqt8a",
    "name": "Pisa Airport",
    "address": "Vía Darsena 1 (next to Hotel Galilei)",
    "city": "Pisa",
    "country": "IT",
    "email": "carrental@t-online.net",
    "iata": "PSA",
    "lat": 43.70194,
    "lon": 10.38655,
    "phoneNumber": "+39(068)17 82",
    "postalCode": "56121",
    "province": "Pisa",
    "reviewsCount": 1308,
    "reviewsRating": 4.6
  },
  {
    "id": "st_z7icd1",
    "name": "Cagliari Airport - Sardinia",
    "address": "Via G. Nervi 1",
    "city": "Elmas",
    "country": "IT",
    "email": "car.rental342@unaref.com",
    "iata": "CAG",
    "lat": 39.26748,
    "lon": 9.0765,
    "phoneNumber": "+39(051)74 711",
    "postalCode": "09030",
    "province": "Cagliari",
    "reviewsCount": 1033,
    "reviewsRating": 4.1
  },
  {
    "id": "st_n2tyqv",
    "name": "Olbia Airport - Sardinia",
    "address": "Aeroporto Olbia Costa Smeralda, zona P1, Via Degli Astronomi,",
    "city": "Olbia",
    "country": "IT",
    "email": "car-rental907@sbcglobal.info",
    "iata": "OLB",
    "lat": 40.905945,
    "lon": 9.517856,
    "phoneNumber": "+39(037)4984 25 46",
    "postalCode": "07026",
    "province": "SS",
    "reviewsCount": 951,
    "reviewsRating": 4
  },
  {
    "id": "st_a2vsw9",
    "name": "Palermo Airport - Sicilia",
    "address": "Via Agnelleria,",
    "city": "Carini",
    "country": "IT",
    "email": "car-rental194@bellsouth.org",
    "iata": "PMO",
    "lat": 38.178783,
    "lon": 13.143413,
    "phoneNumber": "+39(354)04 37 34",
    "postalCode": "90044",
    "province": "Palermo",
    "reviewsCount": 1133,
    "reviewsRating": 4.4
  },
  {
    "id": "st_j71gki",
    "name": "Catania Airport - Sicilia",
    "address": "Via San Giuseppe alla Rena Fondo 4 Catania CT",
    "city": "Catania",
    "country": "IT",
    "email": "car.rental@ig.dev",
    "iata": "CTA",
    "lat": 37.47021,
    "lon": 15.06969,
    "phoneNumber": "+39(033)98 365",
    "postalCode": "95121",
    "province": "Catania",
    "reviewsCount": 2095,
    "reviewsRating": 4.7
  },
  {
    "id": "st_acqnvl",
    "name": "Bologna - Airport",
    "address": "Via Fratelli Rosselli, 9, Calderara di Reno",
    "city": "Bologna",
    "country": "IT",
    "email": "car-rental876@hetnet.com",
    "iata": "BLQ",
    "lat": 44.542482,
    "lon": 11.302865,
    "phoneNumber": "+39(027)11 832",
    "postalCode": "40012",
    "province": "Emilia Romagna",
    "reviewsCount": 666,
    "reviewsRating": 4.4
  }
]
